[
  {
    "parcels": [{ "type": "Box", "size": "M", "color": "MYER" }],
    "suburb": "Keperra",
    "type": "St",
    "number": 9,
    "name": "Elrose",
    "count": 0,
    "address": { "type": "St", "name": "Elrose", "suburb": "Keperra" },
    "lat": -27.4107168,
    "lng": 152.9641521,
    "distance": 8.363098713441461,
    "delivered": true,
    "deliverNumber": 3
  },
  {
    "parcels": [
      { "type": "Bag", "size": "M", "color": "red" },
      { "type": "Bag", "size": "L", "color": "blue" },
      { "type": "Bag", "size": "L", "color": "red" },
      { "type": "Bag", "size": "L", "color": "pink" },
      { "type": "Box", "size": "M", "color": "KMART" }
    ],
    "suburb": "Keperra",
    "type": "St",
    "number": 99,
    "name": "Elrose",
    "count": 4,
    "address": { "type": "St", "name": "Elrose", "suburb": "Keperra" },
    "lat": -27.4087517,
    "lng": 152.9647121,
    "distance": 8.474864919614324,
    "delivered": true,
    "deliverNumber": 1
  },
  {
    "parcels": [
      { "type": "Box", "size": "M", "color": "red" },
      { "type": "Bag", "size": "M", "color": "red" }
    ],
    "suburb": "Mitchelton",
    "type": "St",
    "number": 8,
    "name": "Hicks",
    "count": 1,
    "address": { "type": "St", "name": "Hicks", "suburb": "Mitchelton" },
    "lat": -27.414199,
    "lng": 152.9710704,
    "distance": 7.604293521352101,
    "delivered": true,
    "deliverNumber": 2
  },
  {
    "parcels": [
      { "type": "Box", "size": "M", "color": "KMART" },
      { "type": "Bag", "size": "L", "color": "KMART" },
      { "type": "Bag", "size": "L", "color": "red" },
      { "type": "Bag", "size": "M", "color": "KMART" }
    ],
    "suburb": "Keperra",
    "type": "St",
    "number": 9,
    "name": "Elrose",
    "count": 3,
    "address": { "type": "St", "name": "Elrose", "suburb": "Keperra" },
    "lat": -27.4107168,
    "lng": 152.9641521,
    "distance": 8.36475995555762,
    "delivered": true,
    "deliverNumber": 5
  },
  {
    "parcels": [{ "type": "Box", "size": "M", "color": "red" }],
    "suburb": "Keperra",
    "type": "St",
    "number": 8,
    "name": "Kane",
    "count": 0,
    "address": { "type": "St", "name": "Kane", "suburb": "Keperra" },
    "lat": -27.4066522,
    "lng": 152.9618265,
    "distance": 8.843301351085074,
    "delivered": false,
    "deliverNumber": null
  },
  {
    "parcels": [{ "type": "Box", "size": "M", "color": "MYER" }],
    "suburb": "Gaythorne",
    "type": "Pl",
    "number": 5,
    "name": "Redgum",
    "count": 0,
    "address": { "type": "Pl", "name": "Redgum", "suburb": "Gaythorne" },
    "lat": -27.4114618,
    "lng": 152.9819532,
    "distance": 7.12033185784313,
    "delivered": true,
    "deliverNumber": 4
  },
  {
    "parcels": [
      { "type": "Box", "size": "M", "color": "KMART" },
      { "type": "Bag", "size": "M", "color": "MYER" }
    ],
    "suburb": "Upper Kedron",
    "type": "St",
    "number": 5,
    "name": "Mckinnon",
    "count": 1,
    "address": { "type": "St", "name": "Mckinnon", "suburb": "Upper Kedron" },
    "lat": -27.4138681,
    "lng": 152.9175673,
    "distance": 11.968734496136427,
    "delivered": false,
    "deliverNumber": null
  },
  {
    "parcels": [{ "type": "Box", "size": "M", "color": "MYER" }],
    "suburb": "Keperra",
    "type": "St",
    "number": 9,
    "name": "Elrose",
    "count": 0,
    "address": { "type": "St", "name": "Elrose", "suburb": "Keperra" },
    "lat": -27.4107168,
    "lng": 152.9641521,
    "distance": 8.363098713441461,
    "delivered": true,
    "deliverNumber": 3
  },
  {
    "parcels": [
      { "type": "Bag", "size": "M", "color": "red" },
      { "type": "Bag", "size": "L", "color": "blue" },
      { "type": "Bag", "size": "L", "color": "red" },
      { "type": "Bag", "size": "L", "color": "pink" },
      { "type": "Box", "size": "M", "color": "KMART" }
    ],
    "suburb": "Keperra",
    "type": "St",
    "number": 99,
    "name": "Elrose",
    "count": 4,
    "address": { "type": "St", "name": "Elrose", "suburb": "Keperra" },
    "lat": -27.4087517,
    "lng": 152.9647121,
    "distance": 8.474864919614324,
    "delivered": true,
    "deliverNumber": 1
  },
  {
    "parcels": [
      { "type": "Box", "size": "M", "color": "red" },
      { "type": "Bag", "size": "M", "color": "red" }
    ],
    "suburb": "Mitchelton",
    "type": "St",
    "number": 8,
    "name": "Hicks",
    "count": 1,
    "address": { "type": "St", "name": "Hicks", "suburb": "Mitchelton" },
    "lat": -27.414199,
    "lng": 152.9710704,
    "distance": 7.604293521352101,
    "delivered": true,
    "deliverNumber": 2
  },
  {
    "parcels": [
      { "type": "Box", "size": "M", "color": "KMART" },
      { "type": "Bag", "size": "L", "color": "KMART" },
      { "type": "Bag", "size": "L", "color": "red" },
      { "type": "Bag", "size": "M", "color": "KMART" }
    ],
    "suburb": "Keperra",
    "type": "St",
    "number": 9,
    "name": "Elrose",
    "count": 3,
    "address": { "type": "St", "name": "Elrose", "suburb": "Keperra" },
    "lat": -27.4107168,
    "lng": 152.9641521,
    "distance": 8.36475995555762,
    "delivered": true,
    "deliverNumber": 5
  },
  {
    "parcels": [{ "type": "Box", "size": "M", "color": "red" }],
    "suburb": "Keperra",
    "type": "St",
    "number": 8,
    "name": "Kane",
    "count": 0,
    "address": { "type": "St", "name": "Kane", "suburb": "Keperra" },
    "lat": -27.4066522,
    "lng": 152.9618265,
    "distance": 8.843301351085074,
    "delivered": false,
    "deliverNumber": null
  },
  {
    "parcels": [{ "type": "Box", "size": "M", "color": "MYER" }],
    "suburb": "Gaythorne",
    "type": "Pl",
    "number": 5,
    "name": "Redgum",
    "count": 0,
    "address": { "type": "Pl", "name": "Redgum", "suburb": "Gaythorne" },
    "lat": -27.4114618,
    "lng": 152.9819532,
    "distance": 7.12033185784313,
    "delivered": true,
    "deliverNumber": 4
  },
  {
    "parcels": [
      { "type": "Box", "size": "M", "color": "KMART" },
      { "type": "Bag", "size": "M", "color": "MYER" }
    ],
    "suburb": "Upper Kedron",
    "type": "St",
    "number": 5,
    "name": "Mckinnon",
    "count": 1,
    "address": { "type": "St", "name": "Mckinnon", "suburb": "Upper Kedron" },
    "lat": -27.4138681,
    "lng": 152.9175673,
    "distance": 11.968734496136427,
    "delivered": false,
    "deliverNumber": null
  },
  {
    "parcels": [{ "type": "Box", "size": "M", "color": "MYER" }],
    "suburb": "Keperra",
    "type": "St",
    "number": 9,
    "name": "Elrose",
    "count": 0,
    "address": { "type": "St", "name": "Elrose", "suburb": "Keperra" },
    "lat": -27.4107168,
    "lng": 152.9641521,
    "distance": 8.363098713441461,
    "delivered": true,
    "deliverNumber": 3
  },
  {
    "parcels": [
      { "type": "Bag", "size": "M", "color": "red" },
      { "type": "Bag", "size": "L", "color": "blue" },
      { "type": "Bag", "size": "L", "color": "red" },
      { "type": "Bag", "size": "L", "color": "pink" },
      { "type": "Box", "size": "M", "color": "KMART" }
    ],
    "suburb": "Keperra",
    "type": "St",
    "number": 99,
    "name": "Elrose",
    "count": 4,
    "address": { "type": "St", "name": "Elrose", "suburb": "Keperra" },
    "lat": -27.4087517,
    "lng": 152.9647121,
    "distance": 8.474864919614324,
    "delivered": true,
    "deliverNumber": 1
  },
  {
    "parcels": [
      { "type": "Box", "size": "M", "color": "red" },
      { "type": "Bag", "size": "M", "color": "red" }
    ],
    "suburb": "Mitchelton",
    "type": "St",
    "number": 8,
    "name": "Hicks",
    "count": 1,
    "address": { "type": "St", "name": "Hicks", "suburb": "Mitchelton" },
    "lat": -27.414199,
    "lng": 152.9710704,
    "distance": 7.604293521352101,
    "delivered": true,
    "deliverNumber": 2
  },
  {
    "parcels": [
      { "type": "Box", "size": "M", "color": "KMART" },
      { "type": "Bag", "size": "L", "color": "KMART" },
      { "type": "Bag", "size": "L", "color": "red" },
      { "type": "Bag", "size": "M", "color": "KMART" }
    ],
    "suburb": "Keperra",
    "type": "St",
    "number": 9,
    "name": "Elrose",
    "count": 3,
    "address": { "type": "St", "name": "Elrose", "suburb": "Keperra" },
    "lat": -27.4107168,
    "lng": 152.9641521,
    "distance": 8.36475995555762,
    "delivered": true,
    "deliverNumber": 5
  },
  {
    "parcels": [{ "type": "Box", "size": "M", "color": "red" }],
    "suburb": "Keperra",
    "type": "St",
    "number": 8,
    "name": "Kane",
    "count": 0,
    "address": { "type": "St", "name": "Kane", "suburb": "Keperra" },
    "lat": -27.4066522,
    "lng": 152.9618265,
    "distance": 8.843301351085074,
    "delivered": false,
    "deliverNumber": null
  },
  {
    "parcels": [{ "type": "Box", "size": "M", "color": "MYER" }],
    "suburb": "Gaythorne",
    "type": "Pl",
    "number": 5,
    "name": "Redgum",
    "count": 0,
    "address": { "type": "Pl", "name": "Redgum", "suburb": "Gaythorne" },
    "lat": -27.4114618,
    "lng": 152.9819532,
    "distance": 7.12033185784313,
    "delivered": true,
    "deliverNumber": 4
  },
  {
    "parcels": [
      { "type": "Box", "size": "M", "color": "KMART" },
      { "type": "Bag", "size": "M", "color": "MYER" }
    ],
    "suburb": "Upper Kedron",
    "type": "St",
    "number": 5,
    "name": "Mckinnon",
    "count": 1,
    "address": { "type": "St", "name": "Mckinnon", "suburb": "Upper Kedron" },
    "lat": -27.4138681,
    "lng": 152.9175673,
    "distance": 11.968734496136427,
    "delivered": false,
    "deliverNumber": null
  },
  {
    "parcels": [{ "type": "Box", "size": "M", "color": "MYER" }],
    "suburb": "Keperra",
    "type": "St",
    "number": 9,
    "name": "Elrose",
    "count": 0,
    "address": { "type": "St", "name": "Elrose", "suburb": "Keperra" },
    "lat": -27.4107168,
    "lng": 152.9641521,
    "distance": 8.363098713441461,
    "delivered": true,
    "deliverNumber": 3
  },
  {
    "parcels": [
      { "type": "Bag", "size": "M", "color": "red" },
      { "type": "Bag", "size": "L", "color": "blue" },
      { "type": "Bag", "size": "L", "color": "red" },
      { "type": "Bag", "size": "L", "color": "pink" },
      { "type": "Box", "size": "M", "color": "KMART" }
    ],
    "suburb": "Keperra",
    "type": "St",
    "number": 99,
    "name": "Elrose",
    "count": 4,
    "address": { "type": "St", "name": "Elrose", "suburb": "Keperra" },
    "lat": -27.4087517,
    "lng": 152.9647121,
    "distance": 8.474864919614324,
    "delivered": true,
    "deliverNumber": 1
  },
  {
    "parcels": [
      { "type": "Box", "size": "M", "color": "red" },
      { "type": "Bag", "size": "M", "color": "red" }
    ],
    "suburb": "Mitchelton",
    "type": "St",
    "number": 8,
    "name": "Hicks",
    "count": 1,
    "address": { "type": "St", "name": "Hicks", "suburb": "Mitchelton" },
    "lat": -27.414199,
    "lng": 152.9710704,
    "distance": 7.604293521352101,
    "delivered": true,
    "deliverNumber": 2
  },
  {
    "parcels": [
      { "type": "Box", "size": "M", "color": "KMART" },
      { "type": "Bag", "size": "L", "color": "KMART" },
      { "type": "Bag", "size": "L", "color": "red" },
      { "type": "Bag", "size": "M", "color": "KMART" }
    ],
    "suburb": "Keperra",
    "type": "St",
    "number": 9,
    "name": "Elrose",
    "count": 3,
    "address": { "type": "St", "name": "Elrose", "suburb": "Keperra" },
    "lat": -27.4107168,
    "lng": 152.9641521,
    "distance": 8.36475995555762,
    "delivered": true,
    "deliverNumber": 5
  },
  {
    "parcels": [{ "type": "Box", "size": "M", "color": "red" }],
    "suburb": "Keperra",
    "type": "St",
    "number": 8,
    "name": "Kane",
    "count": 0,
    "address": { "type": "St", "name": "Kane", "suburb": "Keperra" },
    "lat": -27.4066522,
    "lng": 152.9618265,
    "distance": 8.843301351085074,
    "delivered": false,
    "deliverNumber": null
  },
  {
    "parcels": [{ "type": "Box", "size": "M", "color": "MYER" }],
    "suburb": "Gaythorne",
    "type": "Pl",
    "number": 5,
    "name": "Redgum",
    "count": 0,
    "address": { "type": "Pl", "name": "Redgum", "suburb": "Gaythorne" },
    "lat": -27.4114618,
    "lng": 152.9819532,
    "distance": 7.12033185784313,
    "delivered": true,
    "deliverNumber": 4
  },
  {
    "parcels": [
      { "type": "Box", "size": "M", "color": "KMART" },
      { "type": "Bag", "size": "M", "color": "MYER" }
    ],
    "suburb": "Upper Kedron",
    "type": "St",
    "number": 5,
    "name": "Mckinnon",
    "count": 1,
    "address": { "type": "St", "name": "Mckinnon", "suburb": "Upper Kedron" },
    "lat": -27.4138681,
    "lng": 152.9175673,
    "distance": 11.968734496136427,
    "delivered": false,
    "deliverNumber": null
  },
  {
    "parcels": [{ "type": "Box", "size": "M", "color": "MYER" }],
    "suburb": "Keperra",
    "type": "St",
    "number": 9,
    "name": "Elrose",
    "count": 0,
    "address": { "type": "St", "name": "Elrose", "suburb": "Keperra" },
    "lat": -27.4107168,
    "lng": 152.9641521,
    "distance": 8.363098713441461,
    "delivered": true,
    "deliverNumber": 3
  },
  {
    "parcels": [
      { "type": "Bag", "size": "M", "color": "red" },
      { "type": "Bag", "size": "L", "color": "blue" },
      { "type": "Bag", "size": "L", "color": "red" },
      { "type": "Bag", "size": "L", "color": "pink" },
      { "type": "Box", "size": "M", "color": "KMART" }
    ],
    "suburb": "Keperra",
    "type": "St",
    "number": 99,
    "name": "Elrose",
    "count": 4,
    "address": { "type": "St", "name": "Elrose", "suburb": "Keperra" },
    "lat": -27.4087517,
    "lng": 152.9647121,
    "distance": 8.474864919614324,
    "delivered": true,
    "deliverNumber": 1
  },
  {
    "parcels": [
      { "type": "Box", "size": "M", "color": "red" },
      { "type": "Bag", "size": "M", "color": "red" }
    ],
    "suburb": "Mitchelton",
    "type": "St",
    "number": 8,
    "name": "Hicks",
    "count": 1,
    "address": { "type": "St", "name": "Hicks", "suburb": "Mitchelton" },
    "lat": -27.414199,
    "lng": 152.9710704,
    "distance": 7.604293521352101,
    "delivered": true,
    "deliverNumber": 2
  },
  {
    "parcels": [
      { "type": "Box", "size": "M", "color": "KMART" },
      { "type": "Bag", "size": "L", "color": "KMART" },
      { "type": "Bag", "size": "L", "color": "red" },
      { "type": "Bag", "size": "M", "color": "KMART" }
    ],
    "suburb": "Keperra",
    "type": "St",
    "number": 9,
    "name": "Elrose",
    "count": 3,
    "address": { "type": "St", "name": "Elrose", "suburb": "Keperra" },
    "lat": -27.4107168,
    "lng": 152.9641521,
    "distance": 8.36475995555762,
    "delivered": true,
    "deliverNumber": 5
  },
  {
    "parcels": [{ "type": "Box", "size": "M", "color": "red" }],
    "suburb": "Keperra",
    "type": "St",
    "number": 8,
    "name": "Kane",
    "count": 0,
    "address": { "type": "St", "name": "Kane", "suburb": "Keperra" },
    "lat": -27.4066522,
    "lng": 152.9618265,
    "distance": 8.843301351085074,
    "delivered": false,
    "deliverNumber": null
  },
  {
    "parcels": [{ "type": "Box", "size": "M", "color": "MYER" }],
    "suburb": "Gaythorne",
    "type": "Pl",
    "number": 5,
    "name": "Redgum",
    "count": 0,
    "address": { "type": "Pl", "name": "Redgum", "suburb": "Gaythorne" },
    "lat": -27.4114618,
    "lng": 152.9819532,
    "distance": 7.12033185784313,
    "delivered": true,
    "deliverNumber": 4
  },
  {
    "parcels": [
      { "type": "Box", "size": "M", "color": "KMART" },
      { "type": "Bag", "size": "M", "color": "MYER" }
    ],
    "suburb": "Upper Kedron",
    "type": "St",
    "number": 5,
    "name": "Mckinnon",
    "count": 1,
    "address": { "type": "St", "name": "Mckinnon", "suburb": "Upper Kedron" },
    "lat": -27.4138681,
    "lng": 152.9175673,
    "distance": 11.968734496136427,
    "delivered": false,
    "deliverNumber": null
  },
  {
    "parcels": [{ "type": "Box", "size": "M", "color": "MYER" }],
    "suburb": "Keperra",
    "type": "St",
    "number": 9,
    "name": "Elrose",
    "count": 0,
    "address": { "type": "St", "name": "Elrose", "suburb": "Keperra" },
    "lat": -27.4107168,
    "lng": 152.9641521,
    "distance": 8.363098713441461,
    "delivered": true,
    "deliverNumber": 3
  },
  {
    "parcels": [
      { "type": "Bag", "size": "M", "color": "red" },
      { "type": "Bag", "size": "L", "color": "blue" },
      { "type": "Bag", "size": "L", "color": "red" },
      { "type": "Bag", "size": "L", "color": "pink" },
      { "type": "Box", "size": "M", "color": "KMART" }
    ],
    "suburb": "Keperra",
    "type": "St",
    "number": 99,
    "name": "Elrose",
    "count": 4,
    "address": { "type": "St", "name": "Elrose", "suburb": "Keperra" },
    "lat": -27.4087517,
    "lng": 152.9647121,
    "distance": 8.474864919614324,
    "delivered": true,
    "deliverNumber": 1
  },
  {
    "parcels": [
      { "type": "Box", "size": "M", "color": "red" },
      { "type": "Bag", "size": "M", "color": "red" }
    ],
    "suburb": "Mitchelton",
    "type": "St",
    "number": 8,
    "name": "Hicks",
    "count": 1,
    "address": { "type": "St", "name": "Hicks", "suburb": "Mitchelton" },
    "lat": -27.414199,
    "lng": 152.9710704,
    "distance": 7.604293521352101,
    "delivered": true,
    "deliverNumber": 2
  },
  {
    "parcels": [
      { "type": "Box", "size": "M", "color": "KMART" },
      { "type": "Bag", "size": "L", "color": "KMART" },
      { "type": "Bag", "size": "L", "color": "red" },
      { "type": "Bag", "size": "M", "color": "KMART" }
    ],
    "suburb": "Keperra",
    "type": "St",
    "number": 9,
    "name": "Elrose",
    "count": 3,
    "address": { "type": "St", "name": "Elrose", "suburb": "Keperra" },
    "lat": -27.4107168,
    "lng": 152.9641521,
    "distance": 8.36475995555762,
    "delivered": true,
    "deliverNumber": 5
  },
  {
    "parcels": [{ "type": "Box", "size": "M", "color": "red" }],
    "suburb": "Keperra",
    "type": "St",
    "number": 8,
    "name": "Kane",
    "count": 0,
    "address": { "type": "St", "name": "Kane", "suburb": "Keperra" },
    "lat": -27.4066522,
    "lng": 152.9618265,
    "distance": 8.843301351085074,
    "delivered": false,
    "deliverNumber": null
  },
  {
    "parcels": [{ "type": "Box", "size": "M", "color": "MYER" }],
    "suburb": "Gaythorne",
    "type": "Pl",
    "number": 5,
    "name": "Redgum",
    "count": 0,
    "address": { "type": "Pl", "name": "Redgum", "suburb": "Gaythorne" },
    "lat": -27.4114618,
    "lng": 152.9819532,
    "distance": 7.12033185784313,
    "delivered": true,
    "deliverNumber": 4
  },
  {
    "parcels": [
      { "type": "Box", "size": "M", "color": "KMART" },
      { "type": "Bag", "size": "M", "color": "MYER" }
    ],
    "suburb": "Upper Kedron",
    "type": "St",
    "number": 5,
    "name": "Mckinnon",
    "count": 1,
    "address": { "type": "St", "name": "Mckinnon", "suburb": "Upper Kedron" },
    "lat": -27.4138681,
    "lng": 152.9175673,
    "distance": 11.968734496136427,
    "delivered": false,
    "deliverNumber": null
  },
  {
    "parcels": [{ "type": "Box", "size": "M", "color": "MYER" }],
    "suburb": "Keperra",
    "type": "St",
    "number": 9,
    "name": "Elrose",
    "count": 0,
    "address": { "type": "St", "name": "Elrose", "suburb": "Keperra" },
    "lat": -27.4107168,
    "lng": 152.9641521,
    "distance": 8.363098713441461,
    "delivered": true,
    "deliverNumber": 3
  },
  {
    "parcels": [
      { "type": "Bag", "size": "M", "color": "red" },
      { "type": "Bag", "size": "L", "color": "blue" },
      { "type": "Bag", "size": "L", "color": "red" },
      { "type": "Bag", "size": "L", "color": "pink" },
      { "type": "Box", "size": "M", "color": "KMART" }
    ],
    "suburb": "Keperra",
    "type": "St",
    "number": 99,
    "name": "Elrose",
    "count": 4,
    "address": { "type": "St", "name": "Elrose", "suburb": "Keperra" },
    "lat": -27.4087517,
    "lng": 152.9647121,
    "distance": 8.474864919614324,
    "delivered": true,
    "deliverNumber": 1
  },
  {
    "parcels": [
      { "type": "Box", "size": "M", "color": "red" },
      { "type": "Bag", "size": "M", "color": "red" }
    ],
    "suburb": "Mitchelton",
    "type": "St",
    "number": 8,
    "name": "Hicks",
    "count": 1,
    "address": { "type": "St", "name": "Hicks", "suburb": "Mitchelton" },
    "lat": -27.414199,
    "lng": 152.9710704,
    "distance": 7.604293521352101,
    "delivered": true,
    "deliverNumber": 2
  },
  {
    "parcels": [
      { "type": "Box", "size": "M", "color": "KMART" },
      { "type": "Bag", "size": "L", "color": "KMART" },
      { "type": "Bag", "size": "L", "color": "red" },
      { "type": "Bag", "size": "M", "color": "KMART" }
    ],
    "suburb": "Keperra",
    "type": "St",
    "number": 9,
    "name": "Elrose",
    "count": 3,
    "address": { "type": "St", "name": "Elrose", "suburb": "Keperra" },
    "lat": -27.4107168,
    "lng": 152.9641521,
    "distance": 8.36475995555762,
    "delivered": true,
    "deliverNumber": 5
  },
  {
    "parcels": [{ "type": "Box", "size": "M", "color": "red" }],
    "suburb": "Keperra",
    "type": "St",
    "number": 8,
    "name": "Kane",
    "count": 0,
    "address": { "type": "St", "name": "Kane", "suburb": "Keperra" },
    "lat": -27.4066522,
    "lng": 152.9618265,
    "distance": 8.843301351085074,
    "delivered": false,
    "deliverNumber": null
  },
  {
    "parcels": [{ "type": "Box", "size": "M", "color": "MYER" }],
    "suburb": "Gaythorne",
    "type": "Pl",
    "number": 5,
    "name": "Redgum",
    "count": 0,
    "address": { "type": "Pl", "name": "Redgum", "suburb": "Gaythorne" },
    "lat": -27.4114618,
    "lng": 152.9819532,
    "distance": 7.12033185784313,
    "delivered": true,
    "deliverNumber": 4
  },
  {
    "parcels": [
      { "type": "Box", "size": "M", "color": "KMART" },
      { "type": "Bag", "size": "M", "color": "MYER" }
    ],
    "suburb": "Upper Kedron",
    "type": "St",
    "number": 5,
    "name": "Mckinnon",
    "count": 1,
    "address": { "type": "St", "name": "Mckinnon", "suburb": "Upper Kedron" },
    "lat": -27.4138681,
    "lng": 152.9175673,
    "distance": 11.968734496136427,
    "delivered": false,
    "deliverNumber": null
  },
  {
    "parcels": [{ "type": "Box", "size": "M", "color": "MYER" }],
    "suburb": "Keperra",
    "type": "St",
    "number": 9,
    "name": "Elrose",
    "count": 0,
    "address": { "type": "St", "name": "Elrose", "suburb": "Keperra" },
    "lat": -27.4107168,
    "lng": 152.9641521,
    "distance": 8.363098713441461,
    "delivered": true,
    "deliverNumber": 3
  },
  {
    "parcels": [
      { "type": "Bag", "size": "M", "color": "red" },
      { "type": "Bag", "size": "L", "color": "blue" },
      { "type": "Bag", "size": "L", "color": "red" },
      { "type": "Bag", "size": "L", "color": "pink" },
      { "type": "Box", "size": "M", "color": "KMART" }
    ],
    "suburb": "Keperra",
    "type": "St",
    "number": 99,
    "name": "Elrose",
    "count": 4,
    "address": { "type": "St", "name": "Elrose", "suburb": "Keperra" },
    "lat": -27.4087517,
    "lng": 152.9647121,
    "distance": 8.474864919614324,
    "delivered": true,
    "deliverNumber": 1
  },
  {
    "parcels": [
      { "type": "Box", "size": "M", "color": "red" },
      { "type": "Bag", "size": "M", "color": "red" }
    ],
    "suburb": "Mitchelton",
    "type": "St",
    "number": 8,
    "name": "Hicks",
    "count": 1,
    "address": { "type": "St", "name": "Hicks", "suburb": "Mitchelton" },
    "lat": -27.414199,
    "lng": 152.9710704,
    "distance": 7.604293521352101,
    "delivered": true,
    "deliverNumber": 2
  },
  {
    "parcels": [
      { "type": "Box", "size": "M", "color": "KMART" },
      { "type": "Bag", "size": "L", "color": "KMART" },
      { "type": "Bag", "size": "L", "color": "red" },
      { "type": "Bag", "size": "M", "color": "KMART" }
    ],
    "suburb": "Keperra",
    "type": "St",
    "number": 9,
    "name": "Elrose",
    "count": 3,
    "address": { "type": "St", "name": "Elrose", "suburb": "Keperra" },
    "lat": -27.4107168,
    "lng": 152.9641521,
    "distance": 8.36475995555762,
    "delivered": true,
    "deliverNumber": 5
  },
  {
    "parcels": [{ "type": "Box", "size": "M", "color": "red" }],
    "suburb": "Keperra",
    "type": "St",
    "number": 8,
    "name": "Kane",
    "count": 0,
    "address": { "type": "St", "name": "Kane", "suburb": "Keperra" },
    "lat": -27.4066522,
    "lng": 152.9618265,
    "distance": 8.843301351085074,
    "delivered": false,
    "deliverNumber": null
  },
  {
    "parcels": [{ "type": "Box", "size": "M", "color": "MYER" }],
    "suburb": "Gaythorne",
    "type": "Pl",
    "number": 5,
    "name": "Redgum",
    "count": 0,
    "address": { "type": "Pl", "name": "Redgum", "suburb": "Gaythorne" },
    "lat": -27.4114618,
    "lng": 152.9819532,
    "distance": 7.12033185784313,
    "delivered": true,
    "deliverNumber": 4
  },
  {
    "parcels": [
      { "type": "Box", "size": "M", "color": "KMART" },
      { "type": "Bag", "size": "M", "color": "MYER" }
    ],
    "suburb": "Upper Kedron",
    "type": "St",
    "number": 5,
    "name": "Mckinnon",
    "count": 1,
    "address": { "type": "St", "name": "Mckinnon", "suburb": "Upper Kedron" },
    "lat": -27.4138681,
    "lng": 152.9175673,
    "distance": 11.968734496136427,
    "delivered": false,
    "deliverNumber": null
  },
  {
    "parcels": [{ "type": "Box", "size": "M", "color": "MYER" }],
    "suburb": "Keperra",
    "type": "St",
    "number": 9,
    "name": "Elrose",
    "count": 0,
    "address": { "type": "St", "name": "Elrose", "suburb": "Keperra" },
    "lat": -27.4107168,
    "lng": 152.9641521,
    "distance": 8.363098713441461,
    "delivered": true,
    "deliverNumber": 3
  },
  {
    "parcels": [
      { "type": "Bag", "size": "M", "color": "red" },
      { "type": "Bag", "size": "L", "color": "blue" },
      { "type": "Bag", "size": "L", "color": "red" },
      { "type": "Bag", "size": "L", "color": "pink" },
      { "type": "Box", "size": "M", "color": "KMART" }
    ],
    "suburb": "Keperra",
    "type": "St",
    "number": 99,
    "name": "Elrose",
    "count": 4,
    "address": { "type": "St", "name": "Elrose", "suburb": "Keperra" },
    "lat": -27.4087517,
    "lng": 152.9647121,
    "distance": 8.474864919614324,
    "delivered": true,
    "deliverNumber": 1
  },
  {
    "parcels": [
      { "type": "Box", "size": "M", "color": "red" },
      { "type": "Bag", "size": "M", "color": "red" }
    ],
    "suburb": "Mitchelton",
    "type": "St",
    "number": 8,
    "name": "Hicks",
    "count": 1,
    "address": { "type": "St", "name": "Hicks", "suburb": "Mitchelton" },
    "lat": -27.414199,
    "lng": 152.9710704,
    "distance": 7.604293521352101,
    "delivered": true,
    "deliverNumber": 2
  },
  {
    "parcels": [
      { "type": "Box", "size": "M", "color": "KMART" },
      { "type": "Bag", "size": "L", "color": "KMART" },
      { "type": "Bag", "size": "L", "color": "red" },
      { "type": "Bag", "size": "M", "color": "KMART" }
    ],
    "suburb": "Keperra",
    "type": "St",
    "number": 9,
    "name": "Elrose",
    "count": 3,
    "address": { "type": "St", "name": "Elrose", "suburb": "Keperra" },
    "lat": -27.4107168,
    "lng": 152.9641521,
    "distance": 8.36475995555762,
    "delivered": true,
    "deliverNumber": 5
  },
  {
    "parcels": [{ "type": "Box", "size": "M", "color": "red" }],
    "suburb": "Keperra",
    "type": "St",
    "number": 8,
    "name": "Kane",
    "count": 0,
    "address": { "type": "St", "name": "Kane", "suburb": "Keperra" },
    "lat": -27.4066522,
    "lng": 152.9618265,
    "distance": 8.843301351085074,
    "delivered": false,
    "deliverNumber": null
  },
  {
    "parcels": [{ "type": "Box", "size": "M", "color": "MYER" }],
    "suburb": "Gaythorne",
    "type": "Pl",
    "number": 5,
    "name": "Redgum",
    "count": 0,
    "address": { "type": "Pl", "name": "Redgum", "suburb": "Gaythorne" },
    "lat": -27.4114618,
    "lng": 152.9819532,
    "distance": 7.12033185784313,
    "delivered": true,
    "deliverNumber": 4
  },
  {
    "parcels": [
      { "type": "Box", "size": "M", "color": "KMART" },
      { "type": "Bag", "size": "M", "color": "MYER" }
    ],
    "suburb": "Upper Kedron",
    "type": "St",
    "number": 5,
    "name": "Mckinnon",
    "count": 1,
    "address": { "type": "St", "name": "Mckinnon", "suburb": "Upper Kedron" },
    "lat": -27.4138681,
    "lng": 152.9175673,
    "distance": 11.968734496136427,
    "delivered": false,
    "deliverNumber": null
  }
]
